Log Count,Time Stamp,Acceleration x,Acceleration y,Acceleration z,Gyro x,Gyro y,Gyro z,Vertical Speed,Desired Height,Actual Height,Throttle,Desired Pitch,Actual Pitch,Pitch Adjustment,Desired Roll,Actual Roll,Roll Adjustment,Desired Yaw,Actual Yaw,Yaw Adjustment,Blob x-coord,
1,385.835217,-0.001953,-0.000195,1.006152,-0.215611,-0.013737,-0.114838,0,0,26.452,0,0,0.118964,0,0,0.104159,0,0,0.04733,0,0,160
2,385.835763,-0.001953,-0.000195,1.006152,0.140029,-0.013737,0.103891,330.649994,0,26.452,0,0,0.118951,0,0,0.104159,0,0,0.047387,0,0,160
3,385.836207,-0.005859,-0.000195,1.006152,-0.215611,0.26096,0.103891,330.649994,0,26.452,0,0,0.119209,0,0,0.103987,0,0,0.047433,0,0,160
4,385.836574,-0.005859,0.003711,1.006152,0.051119,-0.013737,0.103891,330.649994,0,26.452,0,0,0.119346,0,0,0.104077,0,0,0.047471,0,0,160
5,385.836956,-0.005859,0.003711,1.006152,-0.126701,0.169394,-0.114838,330.649994,0,26.452,0,0,0.119552,0,0,0.104099,0,0,0.047427,0,0,160
6,385.837316,-0.005859,0.003711,1.006152,-0.037791,0.077829,0.103891,330.649994,0,26.452,0,0,0.119722,0,0,0.104157,0,0,0.047465,0,0,160
7,385.83767,-0.005859,0.003711,1.006152,-0.126701,0.077829,-0.114838,330.649994,0,26.452,0,0,0.119891,0,0,0.104183,0,0,0.047424,0,0,160
8,385.838016,-0.005859,0.003711,1.006152,0.228939,0.077829,0.103891,330.649994,0,26.452,0,0,0.120059,0,0,0.104333,0,0,0.04746,0,0,160
9,385.838387,-0.005859,-0.000195,1.006152,0.051119,0.077829,0.103891,330.649994,0,26.452,0,0,0.120229,0,0,0.104275,0,0,0.047499,0,0,160
10,385.838741,-0.005859,-0.000195,1.006152,0.051119,-0.013737,0.103891,330.650055,0,26.452,0,0,0.120365,0,0,0.104217,0,0,0.047535,0,0,160
11,385.839096,-0.001953,-0.000195,1.002246,-0.215611,0.169394,-0.114838,330.650055,0,26.452,0,0,0.12042,0,0,0.104064,0,0,0.047495,0,0,160
12,385.839499,-0.001953,-0.004102,0.99834,0.051119,0.169394,0.103891,330.650055,0,26.452,0,0,0.120483,0,0,0.10386,0,0,0.047536,0,0,160
13,385.839886,-0.001953,-0.004102,1.002246,0.140029,-0.013737,-0.114838,330.650055,0,26.452,0,0,0.120471,0,0,0.10369,0,0,0.047492,0,0,160
14,385.840493,0.001953,-0.000195,0.99834,-0.037791,0.077829,0.103891,330.650055,0,26.452,0,0,0.120365,0,0,0.103591,0,0,0.047555,0,0,160
15,385.840883,0.001953,-0.000195,0.99834,-0.037791,-0.013737,-0.114838,330.650055,0,26.452,0,0,0.120205,0,0,0.1035,0,0,0.04751,0,0,160
16,385.841308,0.001953,-0.000195,0.99834,-0.037791,0.077829,0.103891,330.650055,0,26.452,0,0,0.120084,0,0,0.103408,0,0,0.047554,0,0,160
17,385.84167,0.001953,-0.000195,1.002246,0.140029,-0.105303,-0.114838,330.650055,0,26.452,0,0,0.119893,0,0,0.103383,0,0,0.047513,0,0,160
18,385.842019,0.001953,-0.000195,0.99834,-0.037791,-0.105303,0.103891,0,0,26.452,0,0,0.119702,0,0,0.103294,0,0,0.047549,0,0,160
19,385.842364,0.001953,-0.000195,0.99834,-0.215611,0.169394,0.103891,0,0,26.452,0,0,0.119607,0,0,0.103144,0,0,0.047585,0,0,160
20,385.842727,0.001953,-0.000195,1.002246,-0.126701,0.077829,-0.114838,0,0,26.452,0,0,0.119482,0,0,0.103022,0,0,0.047543,0,0,160
21,385.843233,-0.001953,-0.000195,1.002246,0.051119,0.077829,0.103891,0,0,26.452,0,0,0.119516,0,0,0.102972,0,0,0.047596,0,0,160
22,385.843614,0.001953,-0.000195,1.002246,0.140029,-0.013737,0.103891,0,0,26.452,0,0,0.119357,0,0,0.10295,0,0,0.047635,0,0,160
23,385.843965,0.001953,-0.000195,1.002246,0.140029,-0.013737,0.103891,0,0,26.452,0,0,0.119199,0,0,0.102923,0,0,0.047672,0,0,160
24,385.844373,0.001953,-0.004102,1.006152,-0.126701,-0.105303,0.103891,0,0,26.452,0,0,0.119003,0,0,0.102648,0,0,0.047714,0,0,160
25,385.844725,0.001953,-0.004102,1.006152,0.228939,-0.105303,-0.114838,0,0,26.452,0,0,0.118813,0,0,0.102505,0,0,0.047674,0,0,160
26,385.851104,-0.001953,-0.004102,1.006152,0.051119,-0.105303,0.103891,0,0,26.452,0,0,0.118137,0,0,0.102605,0,0,0.048337,0,0,160
27,385.851569,-0.001953,-0.004102,1.006152,-0.037791,-0.013737,-0.114838,0,0,26.452,0,0,0.118126,0,0,0.102361,0,0,0.048283,0,0,160
28,385.851944,-0.001953,-0.004102,1.006152,0.228939,-0.013737,-0.114838,0,0,26.452,0,0,0.118116,0,0,0.102221,0,0,0.04824,0,0,160
29,385.852324,-0.001953,-0.000195,1.002246,-0.037791,-0.013737,-0.114838,0,0,26.452,0,0,0.118106,0,0,0.10213,0,0,0.048196,0,0,160
30,385.852672,-0.001953,-0.000195,1.006152,-0.126701,-0.013737,0.103891,0,0,26.452,0,0,0.118097,0,0,0.10201,0,0,0.048233,0,0,160
31,385.853013,-0.001953,-0.000195,1.002246,0.051119,-0.013737,-0.114838,0,0,26.452,0,0,0.118088,0,0,0.101951,0,0,0.048193,0,0,160
32,385.853354,-0.001953,-0.000195,1.002246,0.051119,-0.105303,0.103891,0,0,26.452,0,0,0.118048,0,0,0.101892,0,0,0.048229,0,0,160
33,385.853712,-0.005859,-0.000195,1.002246,0.051119,0.169394,0.103891,0,0,26.452,0,0,0.118254,0,0,0.101834,0,0,0.048266,0,0,160
34,385.854054,-0.005859,-0.000195,1.002246,0.051119,0.352525,-0.114838,0,0,26.452,0,0,0.118521,0,0,0.101775,0,0,0.048227,0,0,160
35,385.854445,-0.005859,0.003711,1.002246,0.051119,0.169394,-0.114838,0,0,26.452,0,0,0.118733,0,0,0.10187,0,0,0.048182,0,0,160
36,385.854792,-0.005859,0.003711,1.002246,0.051119,-0.013737,-0.114838,0,0,26.452,0,0,0.118874,0,0,0.101962,0,0,0.048142,0,0,160
37,385.855154,-0.005859,0.003711,0.99834,-0.037791,0.077829,-0.114838,0,0,26.452,0,0,0.119049,0,0,0.102023,0,0,0.048101,0,0,160
38,385.856493,-0.005859,-0.000195,0.99834,0.051119,0.26096,0.103891,0,0,26.452,0,0,0.119545,0,0,0.102015,0,0,0.04824,0,0,160
39,385.856913,-0.001953,-0.000195,0.99834,0.317849,-0.196868,-0.114838,0,0,26.452,0,0,0.119457,0,0,0.102071,0,0,0.048191,0,0,160
40,385.857271,-0.001953,-0.000195,0.99834,-0.215611,-0.105303,-0.114838,0,0,26.452,0,0,0.119414,0,0,0.101918,0,0,0.04815,0,0,160
41,385.860187,-0.001953,-0.000195,0.99834,0.140029,-0.013737,0.103891,0,0,26.452,0,0,0.119369,0,0,0.102249,0,0,0.048453,0,0,160
42,385.86061,-0.001953,-0.000195,0.994434,0.228939,0.169394,0.103891,0,0,26.452,0,0,0.119436,0,0,0.102268,0,0,0.048497,0,0,160
43,385.86122,0.001953,-0.000195,0.994434,0.140029,-0.105303,-0.114838,0,0,26.452,0,0,0.119214,0,0,0.102276,0,0,0.048427,0,0,160
44,385.861605,-0.001953,-0.000195,0.99834,0.051119,0.077829,-0.114838,0,0,26.452,0,0,0.119239,0,0,0.102219,0,0,0.048383,0,0,160
45,385.861963,0.001953,-0.000195,0.99834,0.140029,0.169394,0.103891,0,0,26.452,0,0,0.119142,0,0,0.102191,0,0,0.04842,0,0,160
46,385.862331,-0.001953,-0.000195,1.002246,0.051119,-0.196868,0.103891,0,0,26.452,0,0,0.119065,0,0,0.102133,0,0,0.048458,0,0,160
47,385.865443,-0.001953,-0.000195,1.002246,0.140029,-0.105303,-0.114838,0,0,26.452,0,0,0.118732,0,0,0.10249,0,0,0.048101,0,0,160
48,385.865871,-0.001953,-0.000195,1.002246,0.140029,0.077829,-0.114838,0,0,26.452,0,0,0.118761,0,0,0.102472,0,0,0.048052,0,0,160
49,385.866232,-0.001953,-0.000195,1.002246,-0.215611,-0.013737,-0.114838,0,0,26.452,0,0,0.118751,0,0,0.102317,0,0,0.04801,0,0,160
50,385.866577,-0.001953,-0.000195,1.006152,0.051119,-0.105303,0.103891,0,0,26.452,0,0,0.118709,0,0,0.102256,0,0,0.048046,0,0,160
51,385.866927,-0.005859,-0.000195,1.006152,-0.215611,0.077829,0.103891,0,0,26.452,0,0,0.118884,0,0,0.102103,0,0,0.048083,0,0,160
52,385.867446,-0.005859,-0.000195,1.006152,0.051119,-0.013737,-0.114838,0,0,26.452,0,0,0.119024,0,0,0.102052,0,0,0.048023,0,0,160
53,385.867834,-0.005859,-0.004102,1.010059,-0.126701,-0.013737,-0.114838,0,0,26.452,0,0,0.119165,0,0,0.101773,0,0,0.047978,0,0,160
54,385.868188,-0.005859,-0.000195,1.006152,0.228939,0.077829,0.103891,0,0,26.452,0,0,0.11934,0,0,0.101776,0,0,0.048015,0,0,160
55,385.868534,-0.005859,-0.000195,1.006152,-0.037791,-0.105303,0.103891,0,0,26.452,0,0,0.119451,0,0,0.101686,0,0,0.048051,0,0,160
56,385.868897,-0.009766,-0.004102,1.006152,-0.304522,0.169394,-0.114838,0,0,26.452,0,0,0.119812,0,0,0.101345,0,0,0.048009,0,0,160
57,385.869295,-0.005859,-0.000195,1.006152,-0.037791,0.26096,0.103891,0,0,26.452,0,0,0.120063,0,0,0.101253,0,0,0.048051,0,0,160
58,385.869644,-0.005859,-0.000195,1.006152,-0.037791,0.169394,-0.114838,0,0,26.452,0,0,0.120269,0,0,0.101162,0,0,0.048011,0,0,160
59,385.870186,-0.005859,-0.000195,1.002246,-0.037791,0.077829,-0.114838,0,0,26.452,0,0,0.120458,0,0,0.101065,0,0,0.047948,0,0,160
60,385.870582,-0.005859,-0.000195,1.002246,0.140029,-0.105303,-0.114838,0,0,26.452,0,0,0.120564,0,0,0.101043,0,0,0.047903,0,0,160
61,385.870965,-0.001953,-0.000195,1.002246,0.051119,-0.105303,-0.114838,0,0,26.452,0,0,0.120518,0,0,0.100985,0,0,0.047859,0,0,160
62,385.871322,-0.001953,-0.000195,0.99834,0.140029,-0.013737,0.103891,0,0,26.452,0,0,0.120507,0,0,0.100958,0,0,0.047896,0,0,160
63,385.871688,-0.001953,-0.000195,0.99834,-0.037791,-0.105303,0.103891,0,0,26.452,0,0,0.120463,0,0,0.100867,0,0,0.047934,0,0,160
64,385.872222,-0.001953,-0.000195,0.99834,-0.037791,-0.013737,0.103891,0,0,26.452,0,0,0.12045,0,0,0.100769,0,0,0.04799,0,0,160
65,385.872603,-0.001953,-0.000195,0.99834,-0.037791,0.169394,0.103891,0,0,26.452,0,0,0.120509,0,0,0.100678,0,0,0.048029,0,0,160
66,385.872952,-0.001953,-0.000195,1.002246,0.051119,-0.013737,0.103891,0,0,26.452,0,0,0.120498,0,0,0.100618,0,0,0.048065,0,0,160
67,385.873329,-0.001953,-0.000195,1.002246,-0.037791,0.077829,0.103891,0,0,26.452,0,0,0.120521,0,0,0.100527,0,0,0.048105,0,0,160
68,385.873674,-0.001953,-0.000195,1.002246,0.051119,-0.105303,-0.114838,0,0,26.452,0,0,0.120479,0,0,0.100468,0,0,0.048065,0,0,160
69,385.874015,-0.001953,-0.000195,1.006152,-0.037791,0.077829,0.103891,0,0,26.452,0,0,0.120499,0,0,0.100378,0,0,0.0481,0,0,160
70,385.874406,-0.001953,-0.000195,1.006152,0.228939,-0.013737,0.103891,0,0,26.452,0,0,0.120487,0,0,0.10039,0,0,0.048141,0,0,160
71,385.874754,-0.001953,-0.000195,1.006152,-0.215611,-0.013737,0.103891,0,0,26.452,0,0,0.120476,0,0,0.100239,0,0,0.048177,0,0,160
72,385.875093,-0.001953,-0.000195,1.006152,-0.215611,0.26096,0.103891,0,0,26.452,0,0,0.120558,0,0,0.100089,0,0,0.048212,0,0,160
73,385.87543,-0.001953,-0.000195,1.006152,-0.215611,-0.013737,0.103891,0,0,26.452,0,0,0.120547,0,0,0.099939,0,0,0.048247,0,0,160
74,385.875766,-0.001953,-0.000195,1.006152,0.051119,0.077829,0.103891,0,0,26.452,0,0,0.120567,0,0,0.09988,0,0,0.048282,0,0,160
75,385.876136,-0.001953,-0.000195,1.006152,-0.037791,-0.013737,0.103891,0,0,26.452,0,0,0.120556,0,0,0.099789,0,0,0.048321,0,0,160
76,385.876478,-0.001953,-0.000195,1.002246,0.051119,-0.013737,0.103891,0,0,26.452,0,0,0.120545,0,0,0.09973,0,0,0.048356,0,0,160
77,385.876815,-0.001953,-0.000195,1.002246,-0.215611,0.077829,0.103891,0,0,26.452,0,0,0.120565,0,0,0.099581,0,0,0.048391,0,0,160
78,385.877152,-0.001953,-0.000195,1.002246,-0.126701,-0.105303,0.103891,0,0,26.452,0,0,0.120523,0,0,0.099462,0,0,0.048426,0,0,160
79,385.877519,-0.001953,-0.000195,1.002246,0.140029,0.169394,0.103891,0,0,26.452,0,0,0.120579,0,0,0.099437,0,0,0.048464,0,0,160
80,385.87786,-0.001953,-0.000195,1.002246,0.051119,-0.013737,0.103891,0,0,26.452,0,0,0.120569,0,0,0.099378,0,0,0.0485,0,0,160
81,385.878198,-0.001953,-0.000195,1.002246,-0.215611,-0.105303,0.103891,0,0,26.452,0,0,0.120527,0,0,0.099229,0,0,0.048535,0,0,160
82,385.878534,-0.001953,-0.000195,1.002246,-0.215611,0.077829,0.103891,0.424957,0,26.486,0,0,0.120547,0,0,0.09908,0,0,0.04857,0,0,160
83,385.878898,0.001953,-0.000195,1.002246,-0.037791,0.077829,0.103891,0.424957,0,26.486,0,0,0.120415,0,0,0.09899,0,0,0.048608,0,0,160
84,385.8793,0.001953,-0.000195,1.002246,-0.215611,0.169394,0.103891,0.424957,0,26.486,0,0,0.120323,0,0,0.098827,0,0,0.048649,0,0,160
85,385.879646,-0.001953,-0.000195,1.002246,-0.215611,0.26096,0.103891,0.424957,0,26.486,0,0,0.120407,0,0,0.098677,0,0,0.048685,0,0,160
86,385.880343,-0.001953,-0.000195,1.002246,0.228939,0.169394,0.103891,0.424957,0,26.486,0,0,0.120519,0,0,0.09876,0,0,0.048758,0,0,160
87,385.880735,-0.001953,-0.000195,1.002246,0.140029,0.077829,0.103891,0.424957,0,26.486,0,0,0.120544,0,0,0.098738,0,0,0.048799,0,0,160
88,385.881139,-0.001953,-0.000195,1.002246,-0.126701,0.077829,0.103891,0.424957,0,26.486,0,0,0.120569,0,0,0.098611,0,0,0.048841,0,0,160
89,385.881487,-0.001953,-0.000195,1.002246,-0.037791,-0.013737,0.103891,0.424957,0,26.486,0,0,0.120558,0,0,0.098522,0,0,0.048877,0,0,160
90,385.881828,-0.001953,-0.000195,1.002246,-0.037791,-0.105303,0.103891,0.425053,0,26.486,0,0,0.120516,0,0,0.098433,0,0,0.048912,0,0,160
91,385.882173,-0.005859,-0.000195,1.002246,0.051119,-0.013737,0.103891,0.425053,0,26.486,0,0,0.12066,0,0,0.098375,0,0,0.048948,0,0,160
92,385.882527,-0.005859,-0.000195,1.002246,-0.126701,-0.105303,0.103891,0.425053,0,26.486,0,0,0.120771,0,0,0.098254,0,0,0.048985,0,0,160
93,385.882869,-0.005859,-0.000195,1.002246,-0.304522,-0.105303,0.103891,0.425053,0,26.486,0,0,0.120883,0,0,0.098074,0,0,0.04902,0,0,160
94,385.883205,-0.005859,-0.000195,1.006152,-0.215611,-0.013737,-0.114838,0.425053,0,26.486,0,0,0.121025,0,0,0.097926,0,0,0.048982,0,0,160
95,385.883538,-0.005859,-0.000195,1.006152,-0.126701,-0.013737,0.103891,0.425053,0,26.486,0,0,0.121168,0,0,0.097808,0,0,0.049016,0,0,160
96,385.884047,-0.001953,-0.000195,1.002246,-0.126701,-0.105303,0.103891,0.425053,0,26.486,0,0,0.121108,0,0,0.097668,0,0,0.049069,0,0,160
97,385.884497,-0.005859,-0.000195,1.002246,0.051119,-0.105303,0.103891,0.425053,0,26.486,0,0,0.121209,0,0,0.097615,0,0,0.049116,0,0,160
98,385.884858,-0.001953,-0.000195,1.002246,0.051119,-0.013737,0.103891,-0.424957,0,26.452,0,0,0.121197,0,0,0.097558,0,0,0.049153,0,0,160
99,385.885212,-0.001953,-0.000195,1.002246,0.051119,-0.105303,0.103891,-0.424957,0,26.452,0,0,0.121153,0,0,0.097501,0,0,0.04919,0,0,160
100,385.885585,-0.001953,-0.000195,1.002246,0.140029,-0.105303,0.103891,-0.424957,0,26.452,0,0,0.121108,0,0,0.097478,0,0,0.049229,0,0,160
101,385.885953,-0.001953,-0.000195,1.002246,-0.126701,-0.013737,0.103891,-0.424957,0,26.452,0,0,0.121096,0,0,0.097356,0,0,0.049267,0,0,160
102,385.88915,0.001953,-0.000195,0.99834,0.140029,-0.288434,0.103891,-0.424957,0,26.452,0,0,0.120013,0,0,0.097725,0,0,0.049599,0,0,160
103,385.894136,0.001953,-0.000195,0.99834,-0.215611,-0.013737,-0.114838,-0.424957,0,26.452,0,0,0.119781,0,0,0.096571,0,0,0.049027,0,0,160
104,385.899116,0.001953,-0.000195,0.99834,-0.126701,0.169394,0.103891,-0.424957,0,26.452,0,0,0.12046,0,0,0.09586,0,0,0.049544,0,0,160
105,385.904103,0.001953,-0.000195,0.99834,0.051119,-0.013737,0.103891,-0.424957,0,26.452,0,0,0.120224,0,0,0.096034,0,0,0.050062,0,0,160
106,385.909095,0.001953,-0.004102,0.99834,-0.126701,-0.013737,-0.114838,-0.424957,0,26.452,0,0,0.119987,0,0,0.095156,0,0,0.049489,0,0,160
107,385.914071,0.001953,-0.000195,0.99834,-0.037791,0.169394,0.103891,-0.424957,0,26.452,0,0,0.120658,0,0,0.094886,0,0,0.050006,0,0,160
108,385.919068,0.001953,-0.004102,0.99834,0.051119,0.077829,0.103891,-0.424957,0,26.452,0,0,0.120873,0,0,0.094891,0,0,0.050525,0,0,160
109,385.924046,0.001953,-0.004102,0.99834,-0.126701,-0.013737,0.103891,-0.424957,0,26.452,0,0,0.120629,0,0,0.094008,0,0,0.051042,0,0,160
110,385.929027,-0.001953,-0.004102,0.99834,-0.037791,-0.105303,0.103891,-0.424957,0,26.452,0,0,0.120098,0,0,0.093564,0,0,0.05156,0,0,160
111,385.940151,-0.001953,-0.004102,1.002246,0.140029,0.077829,0.103891,-0.424957,0,26.452,0,0,0.120956,0,0,0.094852,0,0,0.052715,0,0,160
112,385.940697,-0.001953,-0.004102,1.002246,0.228939,0.169394,-0.114838,-0.424957,0,26.452,0,0,0.121041,0,0,0.094719,0,0,0.052653,0,0,160
113,385.943998,-0.001953,-0.000195,1.002246,0.140029,-0.013737,0.103891,-0.424957,0,26.452,0,0,0.120988,0,0,0.095094,0,0,0.052996,0,0,160
114,385.948996,-0.001953,-0.000195,1.002246,0.140029,0.077829,0.103891,0,0,26.452,0,0,0.121369,0,0,0.095702,0,0,0.053515,0,0,160
115,385.953969,-0.001953,-0.000195,1.002246,-0.037791,0.077829,0.103891,0,0,26.452,0,0,0.121747,0,0,0.095422,0,0,0.054032,0,0,160
116,385.958979,-0.001953,-0.000195,0.99834,0.140029,-0.105303,0.103891,0,0,26.452,0,0,0.121212,0,0,0.09603,0,0,0.054552,0,0,160
117,385.963942,-0.001953,-0.000195,1.002246,-0.037791,-0.013737,-0.114838,0,40,26.452,0.644461,0,0.121136,-0.000834,0,0.095748,-0.000635,0,0.053982,-0.000633,160,0
118,385.968918,-0.001953,-0.000195,0.99834,-0.126701,0.077829,0.103891,0,40,26.452,0.644731,0,0.121514,-0.000916,0,0.095023,-0.000553,0,0.054499,-0.00087,160,0
119,385.97389,-0.005859,-0.000195,0.99834,-0.126701,0.077829,0.103891,0,40,26.452,0.645,0,0.122082,-0.00092,0,0.094297,-0.000548,0,0.055016,-0.000877,160,0
120,385.978889,-0.005859,-0.000195,1.002246,0.051119,0.169394,0.103891,0,40,26.452,0.645271,0,0.12311,-0.001007,0,0.094456,-0.000704,0,0.055535,-0.000884,160,0
121,385.983877,-0.005859,-0.000195,1.002246,0.228939,-0.013737,0.103891,0,40,26.452,0.645541,0,0.123224,-0.000848,0,0.095499,-0.000866,0,0.056053,-0.000891,160,0
122,385.988876,-0.005859,-0.000195,1.002246,0.140029,0.077829,0.103891,0,40,26.452,0.645812,0,0.123799,-0.000932,0,0.096098,-0.000793,0,0.056573,-0.000899,160,0
123,385.993852,-0.005859,-0.000195,1.006152,0.228939,-0.013737,-0.114838,0,40,26.452,0.646082,0,0.123917,-0.000853,0,0.097135,-0.000878,0,0.056001,-0.000662,160,0
124,385.998842,-0.005859,-0.000195,1.006152,-0.126701,-0.288434,0.103891,0,40,26.452,0.646352,0,0.122667,-0.000605,0,0.096399,-0.000562,0,0.056519,-0.000898,160,0
125,386.003834,-0.005859,-0.000195,1.010059,-0.126701,0.169394,-0.114838,0,40,26.452,0.646623,0,0.123703,-0.001011,0,0.095662,-0.000557,0,0.055946,-0.000661,160,0
126,386.008829,-0.005859,-0.000195,1.006152,-0.126701,0.077829,-0.114838,0,40,26.452,0.646893,0,0.124286,-0.000936,0,0.094925,-0.000552,0,0.055373,-0.000653,160,0
127,386.013792,-0.005859,-0.000195,1.006152,0.140029,-0.013737,0.103891,0,40,26.452,0.647162,0,0.124413,-0.000857,0,0.095513,-0.000789,0,0.055888,-0.000889,160,0
128,386.018789,-0.005859,-0.004102,1.006152,0.140029,-0.013737,0.103891,0,40,26.452,0.647433,0,0.124543,-0.000857,0,0.095897,-0.000792,0,0.056407,-0.000896,160,0
129,386.023749,-0.005859,-0.000195,1.006152,0.228939,-0.013737,0.103891,0,40,26.452,0.647702,0,0.124676,-0.000858,0,0.096921,-0.000876,0,0.056923,-0.000904,160,0
130,386.028754,-0.005859,-0.000195,1.006152,0.228939,0.169394,0.103891,0,40,26.452,0.647973,0,0.125727,-0.001026,0,0.097953,-0.000884,0,0.057443,-0.000911,160,0
131,386.033732,-0.005859,-0.004102,1.006152,-0.215611,-0.196868,0.103891,0,40,26.452,0.648192,0,0.124953,-0.000701,0,0.096551,-0.000486,0,0.05796,-0.000918,160,0
132,386.038726,-0.005859,-0.000195,1.006152,0.140029,-0.013737,0.103891,0,40,26.452,0.648192,0,0.125093,-0.000861,0,0.097135,-0.0008,0,0.058479,-0.000925,160,0
133,386.043698,-0.005859,-0.000195,1.006152,0.051119,-0.013737,0.103891,0,40,26.452,0.648192,0,0.125237,-0.000862,0,0.097271,-0.000724,0,0.058995,-0.000933,160,0
134,386.048696,-0.005859,-0.000195,1.010059,-0.126701,-0.196868,0.103891,0,40,26.452,0.648192,0,0.124467,-0.000697,0,0.09652,-0.000563,0,0.059514,-0.00094,160,0
135,386.053674,-0.001953,-0.000195,1.006152,0.051119,-0.013737,-0.114838,0,40,26.452,0.648192,0,0.124391,-0.000856,0,0.096654,-0.000719,0,0.058943,-0.000703,160,0
136,386.058665,-0.001953,-0.000195,1.006152,0.140029,-0.013737,0.103891,0,40,26.452,0.648192,0,0.124316,-0.000856,0,0.097231,-0.000801,0,0.059461,-0.000939,160,0
137,386.06365,-0.001953,0.003711,1.002246,0.051119,-0.013737,-0.114838,0,40,26.452,0.648192,0,0.12424,-0.000855,0,0.097593,-0.000726,0,0.058889,-0.000702,160,0
138,386.068636,-0.001953,0.003711,1.002246,-0.037791,0.077829,0.103891,0,40,26.452,0.648192,0,0.124621,-0.000938,0,0.097513,-0.000648,0,0.059407,-0.000938,160,0
139,386.07361,-0.001953,0.003711,1.006152,0.140029,-0.013737,0.103891,0,40,26.452,0.648192,0,0.124545,-0.000857,0,0.098318,-0.000809,0,0.059924,-0.000945,160,0
140,386.07859,-0.005859,0.003711,1.006152,0.051119,-0.105303,-0.114838,0,40,26.452,0.648192,0,0.124251,-0.000776,0,0.098683,-0.000734,0,0.059352,-0.000708,160,0
141,386.083581,-0.005859,0.003711,1.006152,-0.126701,0.169394,-0.114838,0,40,26.452,0.648192,0,0.125328,-0.001023,0,0.098163,-0.000575,0,0.058779,-0.0007,160,0
142,386.088567,-0.005859,0.003711,1.006152,0.140029,-0.105303,-0.114838,0,40,26.452,0.648192,0,0.125039,-0.000781,0,0.098974,-0.000813,0,0.058206,-0.000692,160,0
143,386.093562,-0.005859,0.003711,1.006152,0.051119,-0.105303,0.103891,0,40,26.452,0.648192,0,0.124752,-0.000779,0,0.099344,-0.000738,0,0.058725,-0.000929,160,0
144,386.098551,-0.005859,0.003711,1.006152,-0.037791,0.077829,0.103891,0,40,26.452,0.648192,0,0.125383,-0.000943,0,0.099271,-0.00066,0,0.059243,-0.000936,160,0
145,386.103528,-0.005859,0.003711,1.006152,-0.037791,-0.013737,-0.114838,0,40,26.452,0.648192,0,0.125559,-0.000865,0,0.099201,-0.00066,0,0.058672,-0.000699,160,0
146,386.108517,-0.001953,-0.000195,1.006152,0.051119,-0.196868,0.103891,0,40,26.452,0.648192,0,0.124572,-0.000698,0,0.099322,-0.000738,0,0.05919,-0.000935,160,0
147,386.113494,-0.001953,-0.000195,1.002246,-0.037791,0.169394,0.103891,0,40,26.452,0.648192,0,0.125409,-0.001023,0,0.098997,-0.000658,0,0.059707,-0.000942,160,0
148,386.118498,-0.001953,-0.000195,0.99834,0.140029,-0.105303,0.103891,0,40,26.452,0.648192,0,0.124877,-0.00078,0,0.099559,-0.000817,0,0.060227,-0.00095,160,0
149,386.123463,-0.001953,-0.000195,0.99834,-0.215611,0.169394,0.103891,0,40,26.452,0.648192,0,0.125712,-0.001025,0,0.09835,-0.000498,0,0.060743,-0.000957,160,0
150,386.128456,-0.001953,-0.004102,0.994434,0.140029,-0.105303,0.103891,0,40,26.452,0.648192,0,0.125181,-0.000782,0,0.098638,-0.000811,0,0.061261,-0.000964,160,0
151,386.133431,0.001953,-0.004102,0.994434,0.228939,0.077829,0.103891,0,40,26.452,0.648192,0,0.125291,-0.000943,0,0.099361,-0.000893,0,0.061778,-0.000971,160,0
152,386.138411,0.001953,-0.000195,0.994434,0.051119,0.26096,0.103891,0,40,26.452,0.648192,0,0.126307,-0.00111,0,0.099467,-0.000739,0,0.062296,-0.000979,160,0
153,386.143394,0.001953,-0.000195,0.994434,0.228939,-0.196868,0.103891,0,40,26.452,0.648192,0,0.125041,-0.000701,0,0.100457,-0.000901,0,0.062813,-0.000986,160,0
154,386.148397,0.001953,-0.000195,0.99834,-0.037791,-0.013737,0.103891,0,40,26.452,0.648192,0,0.124684,-0.000858,0,0.100116,-0.000666,0,0.063333,-0.000993,160,0
155,386.153385,0.001953,-0.000195,0.99834,-0.037791,0.169394,0.103891,0,40,26.452,0.648192,0,0.125235,-0.001022,0,0.099773,-0.000664,0,0.063851,-0.001,160,0
156,386.158372,0.001953,-0.000195,1.002246,0.051119,0.077829,-0.114838,0,40,26.452,0.648192,0,0.125326,-0.000943,0,0.099872,-0.000742,0,0.063279,-0.000763,160,0
157,386.163346,0.001953,-0.000195,1.002246,0.228939,0.077829,-0.114838,0,40,26.452,0.648192,0,0.125412,-0.000943,0,0.100852,-0.000904,0,0.062707,-0.000755,160,0
158,386.16834,0.001953,0.003711,1.002246,0.051119,-0.105303,-0.114838,0,40,26.452,0.648192,0,0.124581,-0.000778,0,0.101237,-0.000751,0,0.062134,-0.000747,160,0
159,386.173325,0.001953,0.003711,1.002246,-0.126701,0.077829,0.103891,0,40,26.452,0.648192,0,0.124659,-0.000938,0,0.100737,-0.000593,0,0.062652,-0.000984,160,0
160,386.178315,-0.001953,-0.000195,1.002246,0.051119,-0.013737,-0.114838,0,40,26.452,0.648192,0,0.124575,-0.000858,0,0.100829,-0.000749,0,0.062079,-0.000747,160,0
161,386.183283,0.001953,-0.000195,1.002246,0.051119,-0.105303,0.103891,0,40,26.452,0.648192,0,0.123736,-0.000772,0,0.100917,-0.000749,0,0.062595,-0.000983,160,0
162,386.188259,-0.001953,-0.000195,1.002246,-0.126701,-0.196868,0.103891,0,40,26.452,0.648192,0,0.122741,-0.000685,0,0.10012,-0.000588,0,0.063112,-0.00099,160,0
163,386.19324,-0.001953,-0.000195,1.002246,-0.037791,-0.105303,-0.114838,0,40,26.452,0.648192,0,0.122202,-0.000761,0,0.099763,-0.000663,0,0.06254,-0.000753,160,0
164,386.198236,-0.001953,-0.000195,1.002246,0.140029,-0.013737,0.103891,0,40,26.452,0.648192,0,0.122119,-0.000841,0,0.100291,-0.000822,0,0.063059,-0.000989,160,0
165,386.203224,-0.001953,-0.000195,1.002246,-0.215611,0.077829,0.103891,0,40,26.452,0.648192,0,0.122492,-0.000923,0,0.099044,-0.000503,0,0.063577,-0.000996,160,0
166,386.208225,-0.001953,-0.000195,1.002246,0.051119,-0.105303,0.103891,0,40,26.452,0.648192,0,0.12195,-0.000759,0,0.099126,-0.000737,0,0.064097,-0.001004,160,0
167,386.213196,-0.001953,-0.000195,1.006152,0.228939,0.077829,0.103891,0,40,26.452,0.648192,0,0.122321,-0.000922,0,0.100086,-0.000899,0,0.064613,-0.001011,160,0
168,386.218195,-0.005859,-0.000195,1.006152,-0.037791,0.077829,0.103891,0,40,26.452,0.648192,0,0.123015,-0.000927,0,0.099718,-0.000663,0,0.065132,-0.001018,160,0
169,386.223171,-0.005859,0.003711,1.006152,0.051119,-0.196868,0.103891,0,40,26.452,0.648192,0,0.122346,-0.000682,0,0.100116,-0.000744,0,0.065649,-0.001025,160,0
170,386.228171,-0.005859,0.003711,1.006152,-0.037791,-0.013737,0.103891,0,40,26.452,0.648192,0,0.122593,-0.000844,0,0.100074,-0.000666,0,0.066169,-0.001033,160,0
171,386.233145,-0.005859,-0.000195,1.006152,-0.304522,-0.013737,-0.114838,0,40,26.452,0.648192,0,0.122843,-0.000846,0,0.098377,-0.000421,0,0.065598,-0.000796,160,0
172,386.238115,-0.005859,0.003711,1.006152,-0.037791,0.077829,0.103891,0,40,26.452,0.648192,0,0.123552,-0.00093,0,0.098342,-0.000654,0,0.066114,-0.001032,160,0
173,386.243089,-0.005859,-0.000195,1.006152,0.051119,0.169394,0.103891,0,40,26.452,0.648192,0,0.124719,-0.001019,0,0.098411,-0.000732,0,0.066631,-0.001039,160,0
174,386.248104,-0.005859,-0.000195,1.006152,0.140029,0.077829,-0.114838,0,40,26.452,0.648192,0,0.125438,-0.000944,0,0.098925,-0.000813,0,0.066055,-0.000802,160,0
175,386.253081,-0.005859,-0.000195,1.006152,-0.126701,0.077829,0.103891,0,40,26.452,0.648192,0,0.126157,-0.000949,0,0.098105,-0.000574,0,0.066572,-0.001038,160,0
176,386.258081,-0.005859,-0.000195,1.006152,-0.037791,0.169394,0.103891,0,40,26.452,0.648192,0,0.127338,-0.001037,0,0.097724,-0.000649,0,0.067091,-0.001046,160,0
177,386.263045,-0.005859,-0.000195,1.006152,-0.037791,0.169394,-0.114838,0,40,26.452,0.648192,0,0.128516,-0.001045,0,0.097344,-0.000647,0,0.066521,-0.000809,160,0
178,386.268039,-0.005859,-0.000195,1.006152,-0.037791,0.26096,0.103891,0,40,26.452,0.648192,0,0.130158,-0.001136,0,0.09696,-0.000644,0,0.06704,-0.001045,160,0
179,386.273017,-0.001953,-0.000195,1.006152,-0.037791,-0.013737,0.103891,0,40,26.452,0.648192,0,0.130072,-0.000896,0,0.096575,-0.000641,0,0.067557,-0.001052,160,0
180,386.278013,-0.001953,-0.000195,1.002246,-0.126701,0.077829,0.103891,0,40,26.452,0.648192,0,0.130442,-0.000979,0,0.095744,-0.000558,0,0.068076,-0.001059,160,0
181,386.283058,-0.001953,-0.000195,1.002246,0.051119,-0.013737,0.103891,0,40,26.452,0.648192,0,0.130354,-0.000898,0,0.095801,-0.000713,0,0.068601,-0.001067,160,0
182,386.287981,-0.001953,-0.000195,1.006152,0.140029,0.169394,0.103891,0,40,26.452,0.648192,0,0.131167,-0.001064,0,0.096287,-0.000794,0,0.069112,-0.001074,160,0
183,386.292946,-0.001953,-0.000195,1.002246,-0.126701,0.169394,-0.114838,0,40,26.452,0.648192,0,0.131985,-0.001069,0,0.095453,-0.000556,0,0.068542,-0.000837,160,0
184,386.297934,-0.001953,0.003711,1.002246,-0.126701,-0.013737,-0.114838,0,40,26.452,0.648192,0,0.131894,-0.000909,0,0.094997,-0.000553,0,0.067969,-0.000829,160,0
185,386.302917,-0.001953,0.003711,1.002246,0.140029,-0.013737,0.103891,0,40,26.452,0.648192,0,0.131802,-0.000908,0,0.095871,-0.000792,0,0.068487,-0.001065,160,0
186,386.307924,-0.005859,0.003711,1.006152,-0.126701,0.169394,0.103891,0,40,26.452,0.648192,0,0.133012,-0.001076,0,0.095416,-0.000556,0,0.069007,-0.001072,160,0
187,386.312913,-0.005859,0.003711,1.006152,0.140029,0.169394,0.103891,0,40,26.452,0.648192,0,0.134222,-0.001085,0,0.096294,-0.000794,0,0.069525,-0.00108,160,0
188,386.317899,-0.005859,0.003711,1.006152,0.051119,0.077829,0.103891,0,40,26.452,0.648192,0,0.134978,-0.00101,0,0.096732,-0.00072,0,0.070043,-0.001087,160,0
189,386.322871,-0.009766,0.003711,1.006152,0.140029,0.077829,0.103891,0,40,26.452,0.648192,0,0.136136,-0.001018,0,0.097611,-0.000804,0,0.07056,-0.001094,160,0
190,386.327869,-0.009766,0.003711,1.006152,0.051119,-0.013737,0.103891,0,40,26.452,0.648192,0,0.136848,-0.000943,0,0.098052,-0.000729,0,0.071079,-0.001101,160,0
191,386.332911,-0.005859,0.003711,1.006152,-0.126701,-0.013737,0.103891,0,40,26.452,0.648192,0,0.137161,-0.000946,0,0.097602,-0.000571,0,0.071603,-0.001109,160,0
192,386.337846,-0.005859,-0.000195,1.006152,-0.126701,0.169394,0.103891,0,40,26.452,0.648192,0,0.138381,-0.001114,0,0.096759,-0.000565,0,0.072115,-0.001116,160,0
193,386.342803,-0.005859,-0.000195,1.006152,0.051119,-0.196868,0.103891,0,40,26.452,0.648192,0,0.137796,-0.00079,0,0.096791,-0.00072,0,0.07263,-0.001123,160,0
194,386.347784,-0.001953,-0.000195,1.006152,-0.215611,0.077829,0.103891,0,40,26.452,0.648192,0,0.138159,-0.001032,0,0.095495,-0.000479,0,0.073148,-0.00113,160,0
195,386.35277,-0.001953,-0.000195,1.002246,0.051119,-0.013737,-0.114838,0,40,26.452,0.648192,0,0.138065,-0.000952,0,0.095526,-0.000712,0,0.072575,-0.000893,160,0
196,386.357759,-0.001953,-0.000195,1.006152,-0.126701,0.077829,0.103891,0,40,26.452,0.648192,0,0.138426,-0.001034,0,0.094668,-0.00055,0,0.073094,-0.001129,160,0
197,386.362757,-0.001953,-0.000195,1.006152,0.140029,-0.013737,0.103891,0,40,26.452,0.648192,0,0.13833,-0.000954,0,0.095139,-0.000786,0,0.073613,-0.001137,160,0
198,386.367757,0.001953,-0.000195,1.002246,-0.037791,-0.013737,0.103891,0,40,26.452,0.648192,0,0.137797,-0.00095,0,0.094718,-0.000628,0,0.074132,-0.001144,160,0
199,386.372721,-0.001953,-0.000195,1.006152,0.317849,-0.196868,0.103891,0,40,26.452,0.648192,0,0.136792,-0.000783,0,0.096059,-0.000948,0,0.074648,-0.001151,160,0
200,386.377716,-0.001953,-0.000195,1.006152,-0.126701,0.169394,0.103891,0,40,26.452,0.648192,0,0.137608,-0.001109,0,0.095189,-0.000554,0,0.075167,-0.001158,160,0
201,386.382773,-0.001953,-0.000195,1.002246,-0.215611,-0.105303,0.103891,0,40,26.452,0.648192,0,0.137047,-0.000865,0,0.09386,-0.000467,0,0.075692,-0.001166,160,0
202,386.38769,-0.001953,-0.000195,1.002246,0.140029,0.169394,0.103891,0,40,26.452,0.648192,0,0.137848,-0.00111,0,0.094307,-0.000781,0,0.076203,-0.001173,160,0
203,386.392676,-0.001953,0.003711,1.002246,-0.037791,-0.105303,0.103891,0,40,26.452,0.648192,0,0.137293,-0.000867,0,0.094333,-0.000626,0,0.076721,-0.00118,160,0
204,386.397649,-0.001953,0.003711,1.002246,0.140029,-0.013737,-0.114838,0,40,26.452,0.648192,0,0.137193,-0.000946,0,0.095246,-0.000787,0,0.07615,-0.000943,160,0
205,386.402619,0.001953,0.003711,1.002246,-0.037791,0.077829,-0.114838,0,40,26.452,0.648192,0,0.13708,-0.001025,0,0.095278,-0.000632,0,0.075579,-0.000935,160,0
206,386.40761,-0.001953,0.003711,1.002246,-0.126701,-0.196868,-0.114838,0,40,26.452,0.648192,0,0.136065,-0.000778,0,0.094869,-0.000552,0,0.075006,-0.000927,160,0
207,386.412585,-0.001953,0.003711,1.002246,0.140029,0.169394,-0.114838,0,40,26.452,0.648192,0,0.136874,-0.001103,0,0.09579,-0.000791,0,0.074435,-0.000919,160,0
208,386.417596,-0.001953,0.003711,1.002246,-0.037791,-0.105303,-0.114838,0,40,26.452,0.648192,0,0.136312,-0.00086,0,0.095829,-0.000636,0,0.073859,-0.000911,160,0
209,386.422578,-0.001953,-0.000195,1.002246,-0.126701,-0.288434,0.103891,0,40,26.452,0.648192,0,0.134844,-0.00069,0,0.094945,-0.000552,0,0.074377,-0.001147,160,0
210,386.427575,-0.001953,-0.000195,1.002246,0.051119,-0.013737,0.103891,0,40,26.452,0.648192,0,0.134743,-0.000929,0,0.094945,-0.000707,0,0.074896,-0.001155,160,0
211,386.432661,-0.001953,-0.000195,1.006152,-0.037791,0.077829,0.103891,0,40,26.452,0.648192,0,0.135105,-0.001011,0,0.094494,-0.000627,0,0.075425,-0.001162,160,0
212,386.437541,-0.001953,-0.000195,1.006152,-0.126701,-0.013737,0.103891,0,40,26.452,0.648192,0,0.135003,-0.000931,0,0.093618,-0.000543,0,0.075932,-0.001169,160,0
213,386.442522,-0.005859,-0.000195,1.006152,-0.037791,0.169394,0.103891,0,40,26.452,0.648192,0,0.13631,-0.001099,0,0.093169,-0.000617,0,0.076449,-0.001176,160,0
214,386.447515,-0.005859,-0.000195,1.010059,0.051119,-0.013737,0.103891,0,40,26.452,0.648192,0,0.136707,-0.000942,0,0.093161,-0.000695,0,0.076968,-0.001183,160,0
215,386.452478,-0.009766,-0.000195,1.010059,0.228939,0.077829,0.103891,0,40,26.452,0.648192,0,0.13807,-0.001032,0,0.094028,-0.000856,0,0.077483,-0.001191,160,0
216,386.457461,-0.009766,0.003711,1.010059,0.228939,-0.105303,0.103891,0,40,26.452,0.648192,0,0.138533,-0.000875,0,0.095407,-0.000866,0,0.078001,-0.001198,160,0
217,386.462441,-0.009766,-0.000195,1.013965,0.051119,0.169394,0.103891,0,40,26.452,0.648192,0,0.140368,-0.001128,0,0.095386,-0.000711,0,0.078518,-0.001205,160,0
218,386.467435,-0.009766,0.003711,1.013965,-0.037791,-0.013737,0.103891,0,40,26.452,0.648192,0,0.141301,-0.000974,0,0.095438,-0.000633,0,0.079037,-0.001212,160,0
219,386.472429,-0.009766,0.003711,1.013965,0.140029,0.077829,0.103891,0,40,26.452,0.648192,0,0.1427,-0.001064,0,0.09638,-0.000795,0,0.079556,-0.00122,160,0
220,386.477431,-0.009766,0.003711,1.013965,0.051119,-0.196868,-0.114838,0,40,26.452,0.648192,0,0.142739,-0.000825,0,0.09688,-0.000721,0,0.078982,-0.000983,160,0
221,386.482403,-0.009766,0.003711,1.010059,-0.749072,1.176615,-0.114838,0,40,26.452,0.648192,0,0.149613,-0.002071,0,0.093414,0.000002,0,0.078411,-0.000975,160,0
222,386.487395,-0.005859,0.003711,1.006152,0.85131,-1.020959,-0.114838,0,40,26.452,0.648192,0,0.145026,-0.000122,0,0.097917,-0.001426,0,0.077837,-0.000967,160,0
223,386.492378,-0.001953,-0.000195,1.010059,0.58458,0.901919,-0.114838,0,40,26.452,0.648192,0,0.149476,-0.001831,0,0.100532,-0.001212,0,0.077265,-0.000959,160,0
224,386.497365,-0.001953,-0.004102,1.006152,-1.282533,-0.013737,0.32262,0,40,26.452,0.648192,0,0.149364,-0.001031,0,0.093301,0.000468,0,0.078874,-0.001439,160,0
225,386.502342,-0.001953,-0.004102,1.006152,2.007142,-0.929393,0.32262,0,40,26.452,0.648192,0,0.144704,-0.000199,0,0.102421,-0.002467,0,0.08048,-0.001462,160,0
226,386.507323,-0.001953,0.003711,1.002246,-0.126701,2.824796,-0.114838,0,40,26.452,0.648192,0,0.158706,-0.003573,0,0.102038,-0.000602,0,0.079908,-0.000995,160,0
227,386.512292,0.001953,-0.004102,1.002246,-0.482342,-2.943836,-0.333568,0,40,26.452,0.648192,0,0.143477,0.001567,0,0.098763,-0.000269,0,0.07825,-0.000743,160,0
228,386.517288,0.005859,-0.000195,1.006152,0.94022,2.092271,0.103891,0,40,26.452,0.648192,0,0.152727,-0.002892,0,0.103134,-0.001541,0,0.078769,-0.001209,160,0
229,386.522283,0.001953,-0.004102,1.002246,-0.037791,-0.929393,-0.333568,0,40,26.452,0.648192,0,0.147456,-0.000218,0,0.102039,-0.000679,0,0.077103,-0.000727,160,0
230,386.527273,0.001953,-0.004102,1.006152,-0.215611,-0.013737,-0.333568,0,40,26.452,0.648192,0,0.146752,-0.001013,0,0.100054,-0.00051,0,0.075439,-0.000704,160,0
231,386.532277,-0.001953,-0.004102,1.010059,0.40676,0.169394,0.32262,0,40,26.452,0.648192,0,0.147539,-0.001178,0,0.101169,-0.001061,0,0.077053,-0.001414,160,0
232,386.537248,-0.001953,-0.000195,1.006152,-0.215611,0.169394,0.54135,0,40,26.452,0.648192,0,0.148319,-0.001183,0,0.099758,-0.000508,0,0.079744,-0.00168,160,0
233,386.542226,0.001953,0.003711,1.006152,0.49567,-0.196868,-0.333568,0,40,26.452,0.648192,0,0.146684,-0.000852,0,0.102471,-0.001148,0,0.078084,-0.000741,160,0
234,386.547213,0.005859,-0.004102,1.006152,-0.926893,-1.112524,0.54135,0,40,26.452,0.648192,0,0.13989,-0.000006,0,0.096911,0.000132,0,0.080783,-0.001695,160,0
235,386.552191,0.005859,-0.000195,1.006152,1.029131,1.817575,0.103891,0,40,26.452,0.648192,0,0.147655,-0.002617,0,0.101679,-0.001608,0,0.0813,-0.001244,160,0
236,386.557195,-0.001953,0.003711,1.002246,-0.660162,-1.112524,-0.552297,0,40,26.452,0.648192,0,0.142027,-0.000021,0,0.098637,-0.000113,0,0.078537,-0.000518,160,0
237,386.562155,-0.001953,-0.004102,1.002246,-0.482342,0.169394,0.103891,0,40,26.452,0.648192,0,0.142803,-0.001145,0,0.095285,-0.000244,0,0.079052,-0.001213,160,0
238,386.567141,0.001953,-0.000195,1.002246,0.67349,0.26096,0.103891,0,40,26.452,0.648192,0,0.143414,-0.001229,0,0.098286,-0.001274,0,0.07957,-0.00122,160,0
239,386.572113,0.001953,-0.000195,0.99834,-0.037791,0.077829,-0.114838,0,40,26.452,0.648192,0,0.143103,-0.001067,0,0.097738,-0.000649,0,0.078999,-0.000983,160,0
240,386.577129,0.001953,-0.000195,1.002246,-0.304522,-0.471565,-0.114838,0,40,26.452,0.648192,0,0.14004,-0.000566,0,0.095853,-0.000403,0,0.078423,-0.000975,160,0
241,386.582125,0.001953,-0.000195,1.002246,0.228939,0.627222,0.32262,0,40,26.452,0.648192,0,0.142461,-0.001542,0,0.096633,-0.000874,0,0.080035,-0.001455,160,0
242,386.587108,-0.001953,-0.000195,1.002246,0.317849,-0.013737,0.103891,0,40,26.452,0.648192,0,0.142314,-0.000982,0,0.097846,-0.00096,0,0.080553,-0.001234,160,0
243,386.592073,-0.001953,-0.000195,1.002246,-0.215611,-0.196868,-0.114838,0,40,26.452,0.648192,0,0.14126,-0.000814,0,0.096406,-0.000485,0,0.079982,-0.000997,160,0
244,386.597066,0.001953,-0.000195,1.002246,0.228939,-0.105303,-0.114838,0,40,26.452,0.648192,0,0.140008,-0.000886,0,0.097172,-0.000878,0,0.079409,-0.000989,160,0
245,386.602041,0.001953,-0.000195,1.002246,-0.215611,0.352525,0.103891,0,40,26.452,0.648192,0,0.141024,-0.001292,0,0.095724,-0.00048,0,0.079926,-0.001225,160,0
246,386.607041,0.001953,-0.000195,1.002246,-0.215611,-0.837827,0.103891,0,40,26.452,0.648192,0,0.136103,-0.000219,0,0.094271,-0.00047,0,0.080445,-0.001232,160,0
247,386.612001,0.001953,-0.000195,1.002246,0.40676,0.26096,-0.114838,0,40,26.452,0.648192,0,0.136655,-0.001182,0,0.095905,-0.001025,0,0.079876,-0.000995,160,0
248,386.617003,0.001953,-0.000195,1.002246,-0.571252,-0.196868,0.103891,0,40,26.452,0.648192,0,0.134925,-0.00077,0,0.09267,-0.000148,0,0.080395,-0.001231,160,0
249,386.621968,-0.001953,-0.000195,1.002246,-0.482342,0.535656,0.54135,0,40,26.452,0.648192,0,0.1375,-0.001427,0,0.089903,-0.000207,0,0.083083,-0.001727,160,0
250,386.626957,0.001953,-0.004102,1.002246,1.918232,-1.936614,0.54135,0,40,26.452,0.648192,0,0.127102,0.000803,0,0.098388,-0.002361,0,0.085784,-0.001765,160,0
251,386.632078,0.001953,-0.000195,1.006152,-0.571252,3.007927,-0.552297,0,40,26.452,0.648192,0,0.141716,-0.003614,0,0.095062,-0.000165,0,0.082956,-0.00058,160,0
252,386.636957,0.001953,-0.004102,0.99834,-1.104713,-3.859492,-0.333568,0,40,26.452,0.648192,0,0.122147,0.002515,0,0.088595,0.000346,0,0.081328,-0.000786,160,0
253,386.641935,-0.001953,-0.000195,1.010059,1.473681,2.916362,-0.771026,0,40,26.452,0.648192,0,0.136568,-0.003498,0,0.095521,-0.001953,0,0.07749,-0.000275,160,0
254,386.646924,0.001953,0.003711,1.002246,-1.549264,-2.119746,-0.333568,0,40,26.452,0.648192,0,0.125231,0.000976,0,0.088104,0.000737,0,0.075826,-0.000709,160,0
255,386.651896,-0.001953,-0.004102,1.006152,-0.482342,-0.013737,-0.333568,0,40,26.452,0.648192,0,0.1251,-0.000861,0,0.084621,-0.00017,0,0.074167,-0.000686,160,0
256,386.656896,-0.001953,-0.000195,1.006152,0.228939,-0.196868,-0.114838,0,40,26.452,0.648192,0,0.124056,-0.000694,0,0.085376,-0.000796,0,0.073593,-0.000907,160,0
257,386.661862,-0.005859,-0.000195,1.002246,0.40676,2.183837,0.54135,0,40,26.452,0.648192,0,0.135523,-0.002852,0,0.086998,-0.000962,0,0.076282,-0.001632,160,0
258,386.666854,-0.001953,-0.008008,1.006152,1.206951,-0.563131,1.197538,0,40,26.452,0.648192,0,0.132626,-0.000434,0,0.091167,-0.00169,0,0.08226,-0.002403,160,0
259,386.671832,-0.001953,-0.000195,1.002246,0.58458,1.90914,2.072455,0,40,26.452,0.648192,0,0.142014,-0.002657,0,0.093645,-0.001164,0,0.092576,-0.003463,160,0
260,386.676814,0.001953,-0.000195,1.006152,-2.349455,-3.767926,-0.552297,0,40,26.452,0.648192,0,0.122456,0.002433,0,0.081543,0.001481,0,0.089825,-0.000676,160,0
261,386.68179,0.001953,-0.000195,1.006152,1.829322,4.381411,0.54135,0,40,26.452,0.648192,0,0.143395,-0.004825,0,0.090218,-0.002226,0,0.092519,-0.001859,160,0
262,386.686806,-0.005859,-0.004102,0.99834,-1.282533,-2.486008,0.103891,0,40,26.452,0.648192,0,0.131584,0.001251,0,0.08263,0.000542,0,0.09304,-0.001408,160,0
263,386.691778,0.001953,-0.004102,1.006152,0.317849,-2.486008,-2.95832,0,40,26.452,0.648192,0,0.118432,0.001343,0,0.083049,-0.000857,0,0.078331,0.002004,160,0
264,386.696776,-0.005859,-0.008008,1.006152,-0.037791,3.832018,-0.989756,0,40,26.452,0.648192,0,0.13822,-0.004309,0,0.080942,-0.000532,0,0.073384,0.000012,160,0
265,386.701769,-0.001953,-0.000195,1.002246,1.295861,-4.500451,0.978808,0,40,26.452,0.648192,0,0.115714,0.00312,0,0.086968,-0.001738,0,0.078271,-0.002118,160,0
266,386.706747,0.005859,0.003711,1.002246,0.40676,5.113936,-1.427214,0,40,26.452,0.648192,0,0.139524,-0.005437,0,0.089302,-0.000978,0,0.071167,0.000501,160,0
267,386.711718,-0.001953,0.007617,0.994434,2.362783,-2.760705,2.728643,0,40,26.452,0.648192,0,0.125727,0.001531,0,0.102099,-0.002775,0,0.084731,-0.00404,160,0
268,386.716715,-0.001953,-0.008008,1.006152,-1.282533,2.550099,0.760079,0,40,26.452,0.648192,0,0.138347,-0.003191,0,0.093676,0.000465,0,0.088529,-0.002032,160,0
269,386.721679,-0.005859,-0.000195,0.99834,-0.571252,-1.845049,-0.333568,0,40,26.452,0.648192,0,0.129881,0.000703,0,0.090372,-0.000132,0,0.086873,-0.000864,160,0
270,386.726676,-0.001953,0.003711,1.006152,1.740412,1.90914,0.54135,0,40,26.452,0.648192,0,0.139296,-0.002639,0,0.099348,-0.002212,0,0.089578,-0.001818,160,0
271,386.731643,-0.001953,-0.000195,0.99834,-1.193623,-2.394442,-2.083402,0,40,26.452,0.648192,0,0.127323,0.001201,0,0.092938,0.000393,0,0.07923,0.001075,160,0
272,386.736642,-0.005859,-0.000195,0.994434,-1.638174,-0.013737,-1.427214,0,40,26.452,0.648192,0,0.127975,-0.000881,0,0.084293,0.000841,0,0.072095,0.000488,160,0
273,386.741628,0.001953,0.007617,0.994434,3.074064,-0.379999,0.103891,0,40,26.452,0.648192,0,0.125204,-0.000542,0,0.100718,-0.003386,0,0.072613,-0.001123,160,0
274,386.746629,-0.001953,-0.000195,0.994434,-1.815994,0.810353,0.760079,0,40,26.452,0.648192,0,0.12917,-0.001609,0,0.091155,0.000948,0,0.076414,-0.001863,160,0
275,386.751597,-0.001953,0.003711,0.994434,2.807333,1.90914,1.416267,0,40,26.452,0.648192,0,0.138533,-0.002633,0,0.105384,-0.003186,0,0.08345,-0.002648,160,0
276,386.756608,-0.009766,-0.000195,1.002246,-0.037791,-0.929393,0.32262,0,40,26.452,0.648192,0,0.135394,-0.000134,0,0.104659,-0.000698,0,0.085067,-0.001526,160,0
277,386.761569,-0.001953,-0.000195,0.99834,-2.616185,1.359747,0.978808,0,40,26.452,0.648192,0,0.142009,-0.002178,0,0.091191,0.001646,0,0.089923,-0.002281,160,0
278,386.766568,-0.005859,-0.000195,1.002246,1.829322,-1.570352,-0.552297,0,40,26.452,0.648192,0,0.134878,0.000429,0,0.099811,-0.002293,0,0.087162,-0.000639,160,0
279,386.771544,-0.001953,-0.000195,0.99834,-0.837982,1.359747,-1.864673,0,40,26.452,0.648192,0,0.141516,-0.002175,0,0.095129,0.000067,0,0.077883,0.000865,160,0
280,386.776519,-0.005859,0.003711,1.002246,-0.571252,-2.486008,-1.427214,0,40,26.452,0.648192,0,0.129898,0.001263,0,0.092618,-0.000148,0,0.070783,0.000506,160,0
281,386.781504,-0.001953,0.011523,1.006152,0.228939,0.077829,-0.114838,0,40,26.452,0.648192,0,0.130198,-0.000977,0,0.095758,-0.000868,0,0.07021,-0.00086,160,0
282,386.786495,-0.001953,0.003711,1.002246,0.40676,1.634443,0.760079,0,40,26.452,0.648192,0,0.138238,-0.002391,0,0.098114,-0.00104,0,0.074004,-0.001829,160,0
283,386.791484,-0.001953,0.003711,1.006152,1.029131,-1.570352,0.760079,0,40,26.452,0.648192,0,0.130314,0.000461,0,0.103555,-0.001621,0,0.077796,-0.001882,160,0
284,386.796477,-0.001953,0.007617,1.006152,-3.505287,0.627222,2.728643,0,40,26.452,0.648192,0,0.133343,-0.001478,0,0.087281,0.00245,0,0.09142,-0.004134,160,0
285,386.801449,-0.009766,-0.008008,1.010059,2.718423,6.304288,2.291185,0,40,26.452,0.648192,0,0.16617,-0.006662,0,0.098561,-0.00306,0,0.102812,-0.003835,160,0
286,386.806449,-0.001953,0.011523,1.002246,2.896244,-10.635345,-1.208485,0,40,26.452,0.648192,0,0.112977,0.008492,0,0.11505,-0.003331,0,0.09677,-0.000086,160,0
287,386.811427,0.005859,-0.000195,1.010059,-4.127658,5.938026,-4.270696,0,40,26.452,0.648192,0,0.140674,-0.006164,0,0.093993,0.002946,0,0.07551,0.003418,160,0
288,386.816419,-0.009766,-0.011914,0.990527,-1.104713,-2.211311,-3.614508,0,40,26.452,0.648192,0,0.131323,0.001013,0,0.08533,0.000368,0,0.057466,0.002983,160,0
289,386.821388,0.017578,0.01543,1.006152,-2.438365,-6.881156,-0.989756,0,40,26.452,0.648192,0,0.092789,0.005357,0,0.076278,0.001595,0,0.052548,0.000303,160,0
290,386.826383,-0.001953,0.003711,1.006152,-5.46131,0.901919,2.509914,0,40,26.452,0.648192,0,0.09732,-0.001466,0,0.049543,0.00442,0,0.065085,-0.003537,160,0
291,386.831357,-0.005859,0.011523,1.002246,5.207907,10.882567,1.197538,0,40,26.452,0.648192,0,0.152153,-0.010559,0,0.077677,-0.005087,0,0.071042,-0.002246,160,0
292,386.836352,-0.001953,0.003711,1.002246,5.474637,-11.551001,1.197538,0,40,26.452,0.648192,0,0.094498,0.00942,0,0.105365,-0.005513,0,0.077024,-0.00233,160,0
293,386.841319,0.013672,0.003711,0.99834,-5.63913,6.487419,3.603561,0,40,26.452,0.648192,0,0.123019,-0.00652,0,0.077817,0.004378,0,0.094922,-0.005099,160,0
294,386.846348,-0.009766,-0.011914,1.006152,-0.304522,4.930805,-1.645944,0,40,26.452,0.648192,0,0.149432,-0.005346,0,0.073139,-0.000245,0,0.086645,0.000514,160,0
295,386.851301,-0.001953,-0.008008,0.986621,0.85131,-4.592016,-2.520861,0,40,26.452,0.648192,0,0.1266,0.003123,0,0.075048,-0.001267,0,0.074159,0.001604,160,0
296,386.856304,0.021484,0.01543,1.002246,-6.439321,-6.423328,-1.645944,0,40,26.452,0.648192,0,0.089004,0.004984,0,0.04617,0.005297,0,0.065925,0.000803,160,0
297,386.861273,0.001953,-0.019727,1.017871,3.785345,9.325952,-0.333568,0,40,26.452,0.648192,0,0.134278,-0.009076,0,0.060041,-0.003723,0,0.064267,-0.000548,160,0
298,386.866276,-0.017578,-0.008008,0.990527,6.097009,3.007927,2.072455,-0.425053,40,26.417999,0.649178,0,0.152865,-0.003692,0,0.088137,-0.005936,0,0.074636,-0.003212,160,0
299,386.871242,0.009766,-0.011914,1.002246,1.829322,-7.705246,-1.427214,-0.425053,40,26.417999,0.649178,0,0.111749,0.005944,0,0.093857,-0.002252,0,0.067548,0.000551,160,0
300,386.876242,0.029297,-0.01582,0.99834,-4.838939,8.227165,2.291185,-0.425053,40,26.417999,0.649178,0,0.14514,-0.008193,0,0.065432,0.003766,0,0.079004,-0.003502,160,0
301,386.881205,-0.017578,-0.011914,0.990527,2.540603,-0.563131,-0.333568,-0.425053,40,26.417999,0.649178,0,0.145944,-0.000527,0,0.07466,-0.002738,0,0.077348,-0.000731,160,0
302,386.886199,0.017578,0.003711,1.006152,0.317849,-1.020959,-2.083402,-0.425053,40,26.417999,0.649178,0,0.135935,-0.000058,0,0.076659,-0.000813,0,0.066944,0.001247,160,0
303,386.891166,0.013672,0.003711,0.990527,-5.46131,0.627222,2.728643,-0.425053,40,26.417999,0.649178,0,0.134999,-0.00149,0,0.050078,0.004416,0,0.080497,-0.003981,160,0
304,386.89617,-0.009766,-0.027539,1.02959,5.030087,-1.020959,0.32262,-0.425053,40,26.417999,0.649178,0,0.131554,-0.000027,0,0.068209,-0.004866,0,0.082111,-0.001484,160,0
305,386.901155,-0.005859,0.007617,0.978809,4.852267,6.029592,0.54135,-0.425053,40,26.417999,0.649178,0,0.162293,-0.006395,0,0.093736,-0.004889,0,0.08481,-0.001751,160,0
306,386.906153,0.005859,-0.008008,1.010059,-8.306434,-11.642566,0.54135,-0.424957,40,26.417999,0.649178,0,0.102118,0.009447,0,0.049852,0.006901,0,0.087516,-0.001789,160,0
307,386.911121,0.021484,-0.019727,1.013965,4.318806,5.754895,-0.989756,-0.424957,40,26.417999,0.649178,0,0.124757,-0.005893,0,0.065966,-0.004229,0,0.082599,-0.000117,160,0
308,386.916123,-0.017578,-0.004102,0.986621,-5.99477,3.282624,0.54135,-0.424957,40,26.417999,0.649178,0,0.144894,-0.003876,0,0.034576,0.00499,0,0.085306,-0.001758,160,0
309,386.9211,0.013672,0.007617,1.002246,-1.727084,-5.9655,-1.645944,-0.424957,40,26.417999,0.649178,0,0.111152,0.00443,0,0.02757,0.001315,0,0.077115,0.000647,160,0
310,386.926093,0.013672,-0.011914,1.006152,-2.438365,1.726009,0.760079,-0.424957,40,26.417999,0.649178,0,0.115676,-0.002314,0,0.012128,0.002043,0,0.08091,-0.001926,160,0
311,386.931067,-0.001953,-0.004102,0.990527,4.318806,1.359747,2.072455,-0.424957,40,26.417999,0.649178,0,0.122256,-0.00204,0,0.032193,-0.003994,0,0.091218,-0.003444,160,0
312,386.936056,0.005859,0.003711,1.021777,-4.750029,-1.936614,-0.333568,-0.424957,40,26.417999,0.649178,0,0.110484,0.000919,0,0.009166,0.004081,0,0.089554,-0.000901,160,0
313,386.941022,-0.001953,-0.000195,0.978809,-0.837982,3.648886,-0.114838,-0.424957,40,26.417999,0.649178,0,0.12839,-0.004081,0,0.004716,0.000698,0,0.088984,-0.001122,160,0
314,386.946012,0.009766,-0.011914,1.010059,4.585536,-5.599238,-0.333568,0.425053,40,26.452,0.647342,0,0.097353,0.004207,0,0.024213,-0.004171,0,0.087319,-0.00087,160,0
315,386.951006,0.005859,0.007617,0.982715,-5.28349,5.84646,-0.552297,0.425053,40,26.452,0.647342,0,0.124269,-0.00597,0,-0.000382,0.004613,0,0.084561,-0.000602,160,0
316,386.956008,0.005859,-0.004102,1.002246,-2.527275,-7.796811,-0.114838,0.425053,40,26.452,0.647342,0,0.083188,0.006223,0,-0.014252,0.002305,0,0.083987,-0.001052,160,0
317,386.960975,0.013672,0.003711,1.006152,3.874255,5.113936,0.32262,0.425053,40,26.452,0.647342,0,0.104359,-0.005191,0,0.00571,-0.003421,0,0.085589,-0.001533,160,0
318,386.965974,-0.001953,-0.004102,1.006152,-1.549264,-3.310098,0.54135,0.425053,40,26.452,0.647342,0,0.087726,0.002276,0,-0.003319,0.001375,0,0.088295,-0.0018,160,0
319,386.970956,-0.001953,-0.000195,0.994434,2.629513,5.938026,0.103891,0.425053,40,26.452,0.647342,0,0.117094,-0.005999,0,0.00946,-0.002361,0,0.088813,-0.001349,160,0
320,386.975962,0.013672,0.003711,0.994434,-0.393432,-6.881156,0.54135,0.425053,40,26.452,0.647342,0,0.078421,0.005457,0,0.00822,0.000286,0,0.091523,-0.001845,160,0
321,386.980936,0.005859,-0.011914,0.994434,1.384771,6.487419,-0.552297,0.425053,40,26.452,0.647342,0,0.108395,-0.006418,0,0.011621,-0.00129,0,0.088776,-0.000661,160,0
322,386.985914,-0.001953,-0.000195,0.99834,0.85131,-0.746262,-1.427214,0.425053,40,26.452,0.647342,0,0.104499,-0.000078,0,0.015499,-0.000851,0,0.081671,0.000354,160,0
323,386.990895,0.013672,-0.000195,0.99834,-2.082724,-4.225754,0.103891,0.425053,40,26.452,0.647342,0,0.079158,0.003135,0,0.004813,0.001784,0,0.082188,-0.001256,160,0
324,386.995867,-0.005859,-0.01582,1.010059,2.807333,5.754895,0.54135,0.425053,40,26.452,0.647342,0,0.108599,-0.00578,0,0.014215,-0.002549,0,0.08488,-0.001752,160,0
325,387.000867,-0.001953,0.007617,1.002246,2.273872,-3.859492,0.54135,0.425053,40,26.452,0.647342,0,0.089179,0.002745,0,0.027274,-0.002175,0,0.087587,-0.00179,160,0
326,387.005847,-0.001953,-0.008008,1.006152,-2.260545,3.557321,0.103891,0.425053,40,26.452,0.647342,0,0.106688,-0.003849,0,0.013526,0.001878,0,0.088104,-0.001339,160,0
327,387.010835,0.001953,-0.008008,1.006152,3.785345,-0.379999,0.32262,0.425053,40,26.452,0.647342,0,0.103532,-0.000391,0,0.02982,-0.003512,0,0.089713,-0.00159,160,0
328,387.015825,0.005859,-0.000195,0.99834,-0.304522,0.352525,0.103891,0.425053,40,26.452,0.647342,0,0.102939,-0.001026,0,0.027848,0.000071,0,0.090232,-0.001369,160,0
329,387.020806,-0.009766,0.003711,0.99834,1.473681,1.359747,-0.989756,0.425053,40,26.452,0.647342,0,0.111646,-0.001966,0,0.035784,-0.001536,0,0.085302,-0.000155,160,0
330,387.025793,0.001953,-0.004102,1.013965,-1.371443,-1.20409,-1.208485,0,40,26.452,0.648192,0,0.104364,0.000322,0,0.027423,0.001005,0,0.079275,0.000159,160,0
331,387.030785,0.009766,-0.008008,1.010059,3.162974,-1.112524,0.103891,0,40,26.452,0.648192,0,0.0954,0.000305,0,0.040528,-0.003043,0,0.079794,-0.001223,160,0
332,387.03577,-0.005859,-0.000195,1.006152,-3.149646,2.183837,0.760079,0,40,26.452,0.648192,0,0.10715,-0.002654,0,0.024379,0.002578,0,0.083583,-0.001963,160,0
333,387.040745,0.001953,-0.000195,1.006152,2.985154,0.627222,0.103891,0,40,26.452,0.648192,0,0.108942,-0.001308,0,0.03871,-0.002875,0,0.0841,-0.001283,160,0
334,387.045722,0.005859,-0.004102,1.006152,-0.571252,-3.951057,0.54135,0,40,26.452,0.648192,0,0.086948,0.002841,0,0.034265,0.000259,0,0.086794,-0.001779,160,0
335,387.050708,0.005859,-0.004102,0.99834,-0.926893,4.564542,0.32262,0,40,26.452,0.648192,0,0.107246,-0.004732,0,0.028053,0.000613,0,0.088402,-0.001572,160,0
336,387.055689,0.001953,0.011523,0.990527,0.051119,-0.563131,-0.333568,0,40,26.452,0.648192,0,0.103098,-0.000228,0,0.031192,-0.000262,0,0.086741,-0.000862,160,0
337,387.060694,0.005859,-0.004102,1.006152,2.273872,-3.126967,-0.989756,0,40,26.452,0.648192,0,0.08508,0.002135,0,0.040923,-0.00227,0,0.081787,-0.000105,160,0
338,387.06568,0.005859,-0.008008,1.017871,-2.705095,0.352525,0.32262,0,40,26.452,0.648192,0,0.084477,-0.000897,0,0.024764,0.002188,0,0.083396,-0.001502,160,0
339,387.070661,0.001953,-0.008008,1.013965,-1.104713,-2.302877,0.103891,0,40,26.452,0.648192,0,0.071802,0.001508,0,0.016604,0.000848,0,0.083913,-0.00128,160,0
340,387.075647,-0.005859,-0.008008,1.006152,-1.904904,4.472977,1.853726,0,40,26.452,0.648192,0,0.095026,-0.004567,0,0.004473,0.001631,0,0.093156,-0.003242,160,0
341,387.080623,0.001953,-0.01582,1.006152,-0.660162,-6.881156,-0.552297,0,40,26.452,0.648192,0,0.059632,0.005589,0,-0.003684,0.000602,0,0.090408,-0.000684,160,0
342,387.085621,0.005859,-0.004102,1.002246,1.651502,3.374189,-0.989756,0,40,26.452,0.648192,0,0.074118,-0.003462,0,0.003032,-0.001462,0,0.085461,-0.000157,160,0
343,387.090604,-0.013672,-0.004102,0.99834,-5.99477,-0.929393,-0.552297,0,40,26.452,0.648192,0,0.072843,0.000303,0,-0.028231,0.005429,0,0.082709,-0.000576,160,0
344,387.095585,0.009766,-0.004102,1.006152,-0.660162,-1.570352,0.760079,0,40,26.452,0.648192,0,0.06156,0.000941,0,-0.032884,0.000806,0,0.086495,-0.002004,160,0
345,387.100561,0.001953,-0.011914,1.013965,2.007142,-1.112524,-0.552297,0,40,26.452,0.648192,0,0.054877,0.000588,0,-0.026575,-0.001566,0,0.083747,-0.000591,160,0
346,387.105545,-0.005859,-0.008008,1.002246,-4.305478,1.90914,0.978808,0,40,26.452,0.648192,0,0.065494,-0.002123,0,-0.050495,0.00411,0,0.088625,-0.002262,160,0
347,387.110527,-0.009766,-0.008008,1.010059,4.140985,-0.288434,-0.552297,0,40,26.452,0.648192,0,0.066306,-0.000211,0,-0.032418,-0.003387,0,0.085873,-0.000621,160,0
348,387.115546,0.005859,-0.000195,1.010059,-2.527275,-4.31732,-0.333568,0,40,26.452,0.648192,0,0.042395,0.003472,0,-0.045291,0.002522,0,0.084199,-0.000826,160,0
349,387.120527,0.005859,-0.004102,1.006152,-1.193623,0.444091,0.103891,0,40,26.452,0.648192,0,0.042346,-0.000683,0,-0.05255,0.001409,0,0.084717,-0.001292,160,0
350,387.125511,-0.001953,-0.000195,1.002246,-5.28349,-0.013737,0.54135,0,40,26.452,0.648192,0,0.042346,-0.000284,0,-0.078895,0.005162,0,0.087415,-0.001787,160,0
351,387.13048,0.001953,-0.01582,1.006152,1.118041,-4.31732,-0.114838,0,40,26.452,0.648192,0,0.019906,0.003629,0,-0.078052,-0.000431,0,0.086844,-0.001092,160,0
352,387.135475,0.005859,-0.004102,1.010059,-1.193623,2.824796,0.103891,0,40,26.452,0.648192,0,0.031787,-0.002687,0,-0.08518,0.001636,0,0.087363,-0.001329,160,0
353,387.140456,-0.001953,0.007617,0.99834,1.206951,-0.837827,0.978808,0,40,26.452,0.648192,0,0.027758,0.000537,0,-0.076819,-0.000517,0,0.092239,-0.002313,160,0
354,387.145453,0.009766,0.003711,0.99834,-2.438365,2.092271,0.103891,0,40,26.452,0.648192,0,0.03473,-0.002068,0,-0.087773,0.002741,0,0.092758,-0.001404,160,0
355,387.15042,0.017578,0.003711,0.994434,4.318806,-2.486008,-0.989756,0,40,26.452,0.648192,0,0.016553,0.002054,0,-0.065195,-0.003314,0,0.087842,-0.00019,160,0
356,387.155403,0.013672,-0.000195,1.002246,-5.105669,1.268181,0.760079,0,40,26.452,0.648192,0,0.018235,-0.001234,0,-0.090573,0.005088,0,0.091629,-0.002075,160,0
357,387.160382,-0.001953,-0.011914,0.99834,2.096052,-0.654696,0.54135,0,40,26.452,0.648192,0,0.015148,0.000466,0,-0.083737,-0.001245,0,0.094324,-0.001884,160,0
358,387.165383,0.001953,-0.004102,1.013965,-1.193623,-0.105303,0.103891,0,40,26.452,0.648192,0,0.013599,-0.000003,0,-0.090845,0.001676,0,0.094844,-0.001433,160,0
359,387.170372,0.001953,-0.004102,1.013965,2.629513,0.26096,-0.771026,0,40,26.452,0.648192,0,0.013873,-0.000325,0,-0.078934,-0.001744,0,0.090997,-0.000463,160,0
360,387.175361,-0.005859,-0.008008,1.013965,-1.193623,-0.379999,-0.114838,0,40,26.452,0.648192,0,0.013355,0.000238,0,-0.08726,0.001651,0,0.090424,-0.001142,160,0
361,387.180331,-0.001953,-0.008008,1.010059,-0.926893,2.275402,-0.333568,0,40,26.452,0.648192,0,0.024786,-0.002159,0,-0.094223,0.001467,0,0.088767,-0.00089,160,0
362,387.185324,0.001953,-0.004102,1.006152,2.184962,-4.225754,-1.864673,0,40,26.452,0.648192,0,0.002715,0.003669,0,-0.084527,-0.001317,0,0.079456,0.000843,160,0
363,387.190304,0.001953,-0.004102,1.010059,-3.505287,0.535656,1.634997,0,40,26.452,0.648192,0,0.0044,-0.000498,0,-0.103094,0.003779,0,0.087599,-0.002935,160,0
364,387.195292,-0.009766,-0.011914,1.010059,1.118041,3.282624,0.103891,0,40,26.452,0.648192,0,0.023352,-0.003028,0,-0.101092,-0.00027,0,0.088117,-0.001339,160,0
365,387.200303,-0.009766,0.007617,1.006152,-0.926893,-0.929393,0.103891,0,40,26.452,0.648192,0,0.021316,0.000662,0,-0.103176,0.001529,0,0.088637,-0.001346,160,0
366,387.205257,0.005859,0.011523,1.002246,5.741368,-2.394442,0.103891,0,40,26.452,0.648192,0,0.007225,0.002039,0,-0.071077,-0.004514,0,0.089152,-0.001354,160,0
367,387.210233,-0.001953,0.003711,1.006152,-1.549264,8.318731,1.634997,0,40,26.452,0.648192,0,0.048632,-0.007599,0,-0.077562,0.001893,0,0.097288,-0.003071,160,0
368,387.21523,-0.001953,0.003711,1.006152,0.40676,-6.606459,0.760079,0,40,26.452,0.648192,0,0.015817,0.005655,0,-0.074314,0.000164,0,0.101086,-0.002207,160,0
369,387.220216,0.005859,0.011523,1.002246,0.94022,2.458534,-0.114838,0,40,26.452,0.648192,0,0.025719,-0.002325,0,-0.065936,-0.00036,0,0.100513,-0.001283,160,0
370,387.225223,0.005859,0.01543,1.002246,0.58458,-2.02818,-2.520861,0,40,26.452,0.648192,0,0.013263,0.001677,0,-0.058081,-0.000105,0,0.087891,0.001413,160,0
371,387.230199,-0.005859,-0.000195,1.006152,-4.483298,1.176615,0.103891,0,40,26.452,0.648192,0,0.020537,-0.00117,0,-0.080339,0.004473,0,0.088408,-0.001343,160,0
372,387.235174,0.001953,0.011523,0.99834,3.785345,0.810353,1.634997,0,40,26.452,0.648192,0,0.023461,-0.000871,0,-0.057776,-0.0029,0,0.096542,-0.00306,160,0
373,387.240196,0.001953,0.007617,1.010059,-1.904904,-1.295655,-0.989756,0,40,26.452,0.648192,0,0.015889,0.00102,0,-0.064847,0.002115,0,0.091572,-0.000242,160,0
374,387.245144,-0.005859,-0.008008,0.994434,1.029131,2.73323,0.32262,0,40,26.452,0.648192,0,0.030815,-0.0026,0,-0.062338,-0.000463,0,0.093168,-0.001639,160,0
375,387.250205,-0.017578,-0.008008,1.006152,1.118041,-1.753483,0.32262,0,40,26.452,0.648192,0,0.027155,0.001341,0,-0.059272,-0.000562,0,0.094801,-0.001662,160,0
376,387.255132,0.001953,0.003711,1.006152,-5.72804,0.169394,-0.552297,0,40,26.452,0.648192,0,0.026883,-0.000336,0,-0.086117,0.0056,0,0.09208,-0.000707,160,0
377,387.260107,-0.005859,-0.01582,0.99834,0.228939,-1.570352,0.54135,0,40,26.452,0.648192,0,0.020561,0.001227,0,-0.089998,0.000429,0,0.094773,-0.00189,160,0
378,387.265089,-0.001953,-0.011914,1.013965,4.763357,-0.929393,-1.208485,0,40,26.452,0.648192,0,0.016157,0.000698,0,-0.07008,-0.003668,0,0.088752,0.000026,160,0
379,387.270173,-0.009766,0.003711,0.990527,-3.416377,2.824796,0.54135,0,40,26.452,0.648192,0,0.033268,-0.002697,0,-0.086073,0.003582,0,0.091505,-0.001845,160,0
380,387.275036,0.001953,0.007617,0.99834,-2.882916,-1.387221,-0.771026,0,40,26.452,0.648192,0,0.02543,0.001033,0,-0.097337,0.003195,0,0.087755,-0.000418,160,0
381,387.280209,0.013672,0.003711,1.002246,-0.749072,-3.951057,2.291185,0,40,26.452,0.648192,0,0.000134,0.003447,0,-0.09975,0.00135,0,0.099607,-0.00379,160,0
382,387.28503,0.001953,0.011523,0.986621,1.740412,11.798223,1.197538,0,40,26.452,0.648192,0,0.055716,-0.010685,0,-0.087274,-0.00091,0,0.105381,-0.002725,160,0
383,387.290168,0.009766,0.01543,0.994434,3.340794,-10.543779,-1.864673,0,40,26.452,0.648192,0,-0.002067,0.009216,0,-0.064863,-0.002463,0,0.0958,0.000615,160,0
384,387.294999,0.009766,-0.008008,1.002246,-2.082724,7.860903,1.416267,0,40,26.452,0.648192,0,0.032126,-0.007084,0,-0.077435,0.002358,0,0.102642,-0.002916,160,0
385,387.300037,-0.005859,-0.011914,1.002246,-3.238556,-4.683582,-1.208485,0,40,26.452,0.648192,0,0.010083,0.004017,0,-0.09748,0.003507,0,0.096554,-0.000083,160,0
386,387.304965,-0.001953,-0.004102,1.006152,-0.215611,0.993484,-0.552297,0,40,26.452,0.648192,0,0.015204,-0.000973,0,-0.099641,0.000884,0,0.093832,-0.000732,160,0
387,387.309965,-0.001953,-0.011914,1.002246,2.896244,0.810353,-0.989756,0,40,26.452,0.648192,0,0.019457,-0.000843,0,-0.08897,-0.001906,0,0.088883,-0.000205,160,0
388,387.31493,0.001953,-0.011914,0.99834,0.140029,-2.760705,-0.333568,0,40,26.452,0.648192,0,0.004721,0.002376,0,-0.092101,0.000521,0,0.087227,-0.000869,160,0
